[{"id":1,"name":"Acton Ecumenical Food Pantry","lat":"43.533063","lng":"-70.909797","address":"59 H Rd","address2":"","city":"Acton","state":"ME","postal":"04001","country":"USA","phone":"(207)636-3430","web":"York"},{"id":2,"name":"Adopt a Block of Aroostook","lat":"46.1243469","lng":"-67.813942","address":"https:\/\/www.facebook.com\/Adopt-a-Block-of-Aroostook-151212988235780\/","address2":"307 Military St","city":"Houlton","state":"ME","postal":"04730","country":"United States","phone":"(207)532-2783","web":"Aroostook"},{"id":3,"name":"Adventist Community Services Soup Kitchen","lat":"44.536979","lng":"-70.458127","address":"58 Pine St","address2":"","city":"Dixfield","state":"ME","postal":"04224","country":"USA","phone":"(207)585-2389","web":"Oxford"},{"id":4,"name":"Amistad Inc.","lat":"43.650262","lng":"-70.262253","address":"66 State St","address2":"","city":"Portland","state":"ME","postal":"04101","country":"United States","phone":"207-773-1956","web":"Cumberland"},{"id":5,"name":"Andover Food Pantry","lat":"42.658348","lng":"-71.139703","address":"32 Elm St","address2":"","city":"Andover","state":"ME","postal":"04216","country":"USA","phone":"(207)357-3336","web":"Oxford"},{"id":6,"name":"Apostolic Church Food Pantry \u2013 Rumford","lat":"44.52085","lng":"-70.537131","address":"135 South Rumford Rd","address2":"","city":"Rumford","state":"ME","postal":"04276","country":"USA","phone":"(207)364-7747","web":"Oxford"},{"id":7,"name":"Area Interfaith Outreach","lat":"44.0901551","lng":"-69.1282893","address":"70 Thomaston St","address2":"","city":"Rockland","state":"ME","postal":"04841","country":"USA","phone":"(207)596-1043","web":"Knox"},{"id":8,"name":"Aroostook Area Agency on Aging \u2013 Meals on Wheels","lat":"46.691603","lng":"-68.029757","address":"https:\/\/www.facebook.com\/AroostookAreaAgencyOnAging\/","address2":"1 Edgemont Dr. Suite 2","city":"Presque Isle","state":"ME","postal":"04769","country":"USA","phone":"(207)764-3396","web":"Aroostook"},{"id":9,"name":"Arundel Food Pantry","lat":"43.4782801","lng":"-70.5784641","address":"1237 Alfred Rd","address2":"","city":"Arundel","state":"ME","postal":"04046","country":"USA","phone":"(207)229-0167","web":"York"},{"id":10,"name":"Ashland Food Pantry","lat":"46.6308623","lng":"-68.4120025","address":"http:\/\/townofashland.org\/ashland-area-food-pantry\/","address2":"31-A Station St","city":"Ashland","state":"ME","postal":"04732","country":"USA","phone":"(207)551-8108","web":"Aroostook"},{"id":11,"name":"At a Bend in the Road","lat":"44.347859","lng":"-70.280916","address":"235 Berry Rd","address2":"","city":"Hartford","state":"ME","postal":"04220","country":"United States","phone":"","web":"Oxford"},{"id":12,"name":"Augusta Angel Food Network \u2013 South Parish Church","lat":"44.3166394","lng":"-69.7753531","address":"9 Church St","address2":"","city":"Augusta","state":"ME","postal":"04330","country":"USA","phone":"(207)622-0552","web":"Kennebec"},{"id":13,"name":"Augusta Food Bank","lat":"44.329597","lng":"-69.783463","address":"161 Mt Vernon Ave","address2":"","city":"Augusta","state":"ME","postal":"04330","country":"United States","phone":"","web":"Kennebec"},{"id":14,"name":"Bangor Area Homeless Shelter","lat":"44.7968914","lng":"-68.7739255","address":"https:\/\/www.facebook.com\/bangorareashelter\/","address2":"263 Main St","city":"Bangor","state":"ME","postal":"04401","country":"USA","phone":"(207)947-0092","web":"Penobscot"},{"id":15,"name":"Bar Harbor Food Pantry","lat":"44.386637","lng":"-68.2069","address":"https:\/\/www.facebook.com\/barharborfoodpantry\/","address2":"36 Mt Desert St","city":"Bar Harbor","state":"ME","postal":"04609","country":"USA","phone":"(207)288-3375","web":"Hancock"},{"id":16,"name":"Baskets of Blessings Food Pantry","lat":"46.770539","lng":"-67.829310","address":"https:\/\/www.facebook.com\/groups\/1181676755361505\/about\/","address2":"4 Church St","city":"Fort Fairfield","state":"ME","postal":"04742","country":"United States","phone":"(207)325-1635","web":"Aroostook"},{"id":17,"name":"Bath Area Food Bank \u2013 Food Pantry","lat":"43.9147139","lng":"-69.831073","address":"807 Middle Street","address2":"","city":"Bath","state":"ME","postal":"04530","country":"USA","phone":"(207)737-9289","web":"Sagadahoc"},{"id":18,"name":"Bath Area Food Bank \u2013 Soup Kitchen","lat":"43.9144538","lng":"-69.8162875","address":"807 Middle Street","address2":"","city":"Bath","state":"ME","postal":"04530","country":"USA","phone":"207) 737-9289","web":"Sagadahoc"},{"id":19,"name":"Belfast Soup Kitchen","lat":"44.424895","lng":"-69.023637","address":"1 Belmont Ave Suite 1","address2":"","city":"Belfast","state":"ME","postal":"04915","country":"USA","phone":"(207)338-4845","web":"Waldo"},{"id":20,"name":"Belgrade \u2013 Rome Special Needs","lat":"44.535164","lng":"-69.791996","address":"508 Smithfield Road","address2":"","city":"Belgrade","state":"ME","postal":"04917","country":"USA","phone":"(207)495-2022","web":"Kennebec"},{"id":21,"name":"Biddeford Food Pantry","lat":"43.494397","lng":"-70.460338","address":"162 Elm St","address2":"","city":"Biddeford","state":"ME","postal":"04005","country":"United States","phone":"","web":"York"},{"id":22,"name":"Blue Cross Food Cupboard","lat":"45.111810","lng":"-68.810270","address":"https:\/\/www.facebook.com\/Lagrange-Full-Gospel-111300280405774\/","address2":"4895 Bennoch Rd","city":"Lagrange","state":"ME","postal":"04453","country":"USA","phone":"(207)479-4010","web":"Penobscot"},{"id":23,"name":"Bon Appetite Meal Program","lat":"43.4921912","lng":"-70.4589733","address":"19 Crescent St","address2":"","city":"Biddeford","state":"ME","postal":"04005","country":"USA","phone":"(207)205-0995","web":"York"},{"id":24,"name":"Boothbay Regional Food Pantry","lat":"43.856904","lng":"-69.624506","address":"125 Townsend Avenue","address2":"","city":"Boothbay Harbor","state":"ME","postal":"04538","country":"USA","phone":"(207)633-0345","web":"Lincoln"},{"id":25,"name":"Bowdoinham Food Pantry","lat":"44.008378","lng":"-69.8958679","address":"9 Main St","address2":"","city":"Bowdoinham","state":"ME","postal":"04008","country":"","phone":"","web":"Sagadahoc"},{"id":26,"name":"Boys & Girls Club \u2013 Gardiner","lat":"44.229885","lng":"-69.7849729","address":"14 Pray St","address2":"","city":"Gardiner","state":"ME","postal":"04345","country":"USA","phone":"(207)582-8458","web":"Kennebec"},{"id":27,"name":"Boys & Girls Club \u2013 Southern Maine","lat":"43.6597719","lng":"-70.259252","address":"277 Cumberland Ave","address2":"","city":"Portland","state":"ME","postal":"04101","country":"USA","phone":"(207)874-1069","web":"Cumberland"},{"id":28,"name":"Boys & Girls Club \u2013 Waterville","lat":"44.5606459","lng":"-69.6435822","address":"126 North St","address2":"","city":"Waterville","state":"ME","postal":"04901","country":"USA","phone":"(207)873-0684","web":"Kennebec"},{"id":29,"name":"Boys & Girls Club for Teens \u2013 Augusta","lat":"44.3118526","lng":"-69.7961299","address":"22 Armory St","address2":"","city":"Augusta","state":"ME","postal":"04330","country":"USA","phone":"(207)622-0452","web":"Kennebec"},{"id":30,"name":"Bread for the Journey- Warren Food Pantry","lat":"44.1209342","lng":"-69.2471908","address":"44 School St","address2":"","city":"Warren","state":"ME","postal":"04864","country":"","phone":"207-273-4400","web":"Knox"},{"id":31,"name":"Bread of Life Food Pantry","lat":"44.149614","lng":"-68.451199","address":"217 Harbor Rd","address2":"","city":"Swans Island","state":"ME","postal":"04685","country":"USA","phone":"(207)526-4347","web":"Hancock"},{"id":32,"name":"Bread of Life Ministries","lat":"44.3173769","lng":"-69.7733279","address":"157 Water St","address2":"","city":"Augusta","state":"ME","postal":"04330","country":"USA","phone":"(207)626-3434","web":"Kennebec"},{"id":33,"name":"Brewer Area Food Pantry- OHI","lat":"44.796551","lng":"-68.762680","address":"https:\/\/www.ohimaine.org\/brewer-area-food-pantry\/","address2":"222 North Main St","city":"Brewer","state":"Maine","postal":"04112","country":"USA","phone":"(207)848-5804","web":"Penobscot"},{"id":34,"name":"Bridgton Food Pantry \u2013 UMC","lat":"44.0543806","lng":"-70.7048004","address":"214 Main St","address2":"","city":"Bridgton","state":"ME","postal":"04009","country":"USA","phone":"(207)647-4476","web":"Cumberland"},{"id":35,"name":"Buckfield Food Pantry","lat":"44.288723","lng":"-70.363609","address":"27 Turner St","address2":"","city":"Buckfield","state":"ME","postal":"04220","country":"USA","phone":"(207)336-2776","web":"Oxford"},{"id":36,"name":"Bucksport Community Concerns","lat":"44.573326","lng":"-68.793993","address":"https:\/\/www.facebook.com\/Bucksport-Community-Concerns-329135141000179\/","address2":"31 Elm St","city":"Bucksport","state":"ME","postal":"04416","country":"USA","phone":"(207)469-2400","web":"Hancock"},{"id":37,"name":"Buxton Community Cupboard","lat":"43.649173","lng":"-70.541310","address":"938 Long Plains Rd","address2":"","city":"Buxton","state":"ME","postal":"04093","country":"USA","phone":"(207)642-2396","web":"York"},{"id":38,"name":"Buxton Community Services Corp.","lat":"43.649049","lng":"-70.541686","address":"937 Long Plains Rd","address2":"","city":"Buxton","state":"ME","postal":"04093","country":"United States","phone":"(207)929-8806","web":"York"},{"id":39,"name":"Camden Area Christian Food Pantry","lat":"44.2227485","lng":"-69.0808455","address":"128 Mt Battie St","address2":"","city":"Camden","state":"ME","postal":"04843","country":"USA","phone":"(207)236-9790","web":"Knox"},{"id":40,"name":"Canaan Community Food Cupboard   Canaan ME 04924","lat":"44.762083","lng":"-69.562354","address":"272 Main St","address2":"","city":"Canaan","state":"ME","postal":"04924","country":"United States","phone":"","web":"Somerset"},{"id":41,"name":"Canton Baptist Church Food Pantry","lat":"44.436657","lng":"-70.308449","address":"90 Turner St","address2":"","city":"Canton","state":"ME","postal":"04221","country":"United States","phone":"","web":"Oxford"},{"id":42,"name":"Care & Share Food Closet","lat":"44.6999038","lng":"-70.1614676","address":"508 Fairbanks Road","address2":"","city":"Farmington","state":"ME","postal":"04938","country":"USA","phone":"(207)645-2312","web":"Franklin"},{"id":43,"name":"Caribou Bread of Life Soup Kitchen","lat":"46.861502","lng":"-68.017846","address":"https:\/\/www.facebook.com\/CaribouBOLSK\/","address2":"62 Collins St","city":"Caribou","state":"ME","postal":"04736","country":"USA","phone":"(207)493-4858","web":"Aroostook"},{"id":44,"name":"Caribou Ecumenical Food Pantry","lat":"46.861090","lng":"-68.013270","address":"31 Herschel St, Suite 1","address2":"","city":"Caribou","state":"ME","postal":"04736","country":"USA","phone":"(207)493-4860","web":"Aroostook"},{"id":45,"name":"Casco Alliance Church Food Pantry","lat":"43.932221","lng":"-70.540039","address":"7 Point Sebago Rd.","address2":"","city":"Casco","state":"ME","postal":"04015","country":"USA","phone":"(207)344-5370","web":"Cumberland"},{"id":46,"name":"Casco Village Church","lat":"44.004679","lng":"-70.521529","address":"941 Meadow Rd","address2":"","city":"Casco","state":"ME","postal":"04015","country":"USA","phone":"(207)627-4282","web":"Cumberland"},{"id":47,"name":"Center for Active Living- Town of York","lat":"43.178373","lng":"-70.610993","address":"36 Main St","address2":"","city":"York","state":"ME","postal":"03909","country":"United States","phone":"(207)363-1036","web":"York"},{"id":48,"name":"Center Point Community Church","lat":"44.7986144","lng":"-69.891561","address":"16 Church St","address2":"Marantha Assembly Church","city":"Anson","state":"ME","postal":"04911","country":"USA","phone":"(207)696-8188","web":"Somerset"},{"id":49,"name":"CHEFS","lat":"44.747568","lng":"-68.613693","address":"https:\/\/www.rsu63.org\/site\/default.aspx?PageType=3&amp;DomainID=8&amp;ModuleInstanceID=322&amp;ViewID=6446EE88-D30C-497E-9316-3F8874B3E108&amp;RenderLoc=0&amp;FlexDataID=835&amp;PageID=9","address2":"202 Kidder Hill Rd","city":"Holden","state":"ME","postal":"04429","country":"USA","phone":"(207)843-7769","web":"Penobscot"},{"id":50,"name":"Chelsea Food Bank","lat":"44.2901733","lng":"-69.7726778","address":"5 Glenridge Dr","address2":"","city":"Augusta","state":"ME","postal":"04330","country":"USA","phone":"(207)991-2967","web":"Kennebec"},{"id":51,"name":"Chester Baptist Food Pantry","lat":"45.4303036","lng":"-68.4712541","address":"(207)447-5516","address2":"2 South Chester Rd","city":"Chester","state":"ME","postal":"04457","country":"USA","phone":"(207)794-2541","web":"Penobscot"},{"id":52,"name":"China Community Food Pantry","lat":"44.475178","lng":"-69.5094869","address":"1320 Lakeview Dr","address2":"","city":"China","state":"ME","postal":"04358","country":"USA","phone":"(207)968-2421","web":"Kennebec"},{"id":53,"name":"Chrysalis Place \u2013 Gardiner Food Pantry","lat":"44.201861","lng":"-69.796009","address":"576 Brunswick Rd","address2":"","city":"Gardiner","state":"ME","postal":"04345","country":"USA","phone":"(207)582-5507","web":"Kennebec"},{"id":54,"name":"Church Community Food Pantry \u2013 Kennebunk","lat":"43.3922334","lng":"-70.5338416","address":"34 Portland Rd","address2":"","city":"Kennebunk","state":"ME","postal":"04043","country":"USA","phone":"(207)967-3613","web":"York"},{"id":55,"name":"Clearwater Ministries \u2013 Clearwater Food Pantry","lat":"44.746677","lng":"-70.052075","address":"393 West Mills Road","address2":"","city":"Industry","state":"ME","postal":"04938","country":"USA","phone":"(207)778-3368","web":"Franklin"},{"id":56,"name":"Clifton Community Food Bank","lat":"44.7924411","lng":"-68.5704941","address":"https:\/\/www.facebook.com\/Clifton-Community-Food-Bank-703253826401143\/","address2":"742 Airline Rd (Route 9)","city":"Clifton","state":"ME","postal":"04428","country":"USA","phone":"(207)843-5441","web":"Penobscot"},{"id":57,"name":"Clinton Community Food Bank","lat":"44.6375492","lng":"-69.5003097","address":"36 Church St","address2":"","city":"Clinton","state":"ME","postal":"04927","country":"USA","phone":"(207)680-6222","web":"Kennebec"},{"id":58,"name":"Come Spring Food Pantry","lat":"44.211686","lng":"-69.264146","address":"51 South Union Rd","address2":"","city":"Union","state":"Maine","postal":"04862","country":"United States","phone":"","web":"Knox"},{"id":59,"name":"Common Good Soup Kitchen","lat":"44.2800423","lng":"-68.324793","address":"https:\/\/www.facebook.com\/The-Common-Good-Community-168365513183269\/","address2":"19 Clark Point Rd","city":"Southwest Harbor","state":"ME","postal":"04679","country":"USA","phone":"(207)244-3007","web":"Hancock"},{"id":60,"name":"Community Baptist Food Pantry","lat":"44.119894","lng":"-70.107996","address":"9 Main St","address2":"","city":"Sabattus","state":"ME","postal":"04280","country":"USA","phone":"(207)375-4337","web":"Androscoggin"},{"id":61,"name":"Community Christmas Project","lat":"44.7832838","lng":"-69.3825739","address":"128 Connors Street","address2":"","city":"Pittsfield","state":"ME","postal":"04967","country":"USA","phone":"(207)371-1117","web":"Somerset"},{"id":62,"name":"Community Food Pantry Inc \u2013 Somersworth","lat":"43.2612623","lng":"-70.891977","address":"176 West High St","address2":"","city":"Somersworth","state":"NH","postal":"03878","country":"USA","phone":"(603)692-2907","web":"York"},{"id":63,"name":"Community Food Pantry- Cumberland","lat":"43.7893033","lng":"-70.2453129","address":"290 Tuttle Rd","address2":"Town Hall","city":"Cumberland","state":"ME","postal":"04021","country":"USA","phone":"(207)829-4264","web":"Cumberland"},{"id":64,"name":"Community Lunch \u2013 Norway","lat":"44.214504","lng":"-70.544721","address":"479 Main St","address2":"","city":"Norway","state":"ME","postal":"04268","country":"USA","phone":"(207)743-2565","web":"Oxford"},{"id":65,"name":"Community Table Soup Kitchen","lat":"44.808427","lng":"-70.2202154","address":"14 South Main St","address2":"","city":"Strong","state":"ME","postal":"04983","country":"USA","phone":"(207)491-5080","web":"Franklin"},{"id":66,"name":"Compassion Center of Midcoast Maine","lat":"43.874725","lng":"-69.948927","address":"468 Harpswell Rd","address2":"","city":"Brunswick","state":"ME","postal":"04011","country":"USA","phone":"(207)729-0660","web":"Cumberland"},{"id":67,"name":"Corinna UMC Food Pantry","lat":"44.9224267","lng":"-69.2593775","address":"https:\/\/www.facebook.com\/groups\/1846693948897141\/","address2":"16 Dexter Rd","city":"Corinna","state":"ME","postal":"04928","country":"USA","phone":"(207)278-4777","web":"Penobscot"},{"id":68,"name":"Cornville Athens Community Food Cupboard    Cornville ME 04976","lat":"44.846469","lng":"-69.676283","address":"493 West Ridge Rd","address2":"","city":"Cornville","state":"ME","postal":"04976","country":"United States","phone":"","web":"Somerset"},{"id":69,"name":"Crossroads Community Church","lat":"43.8914945","lng":"-70.327726","address":"14 Lewiston Rd","address2":"","city":"Gray","state":"ME","postal":"04039","country":"USA","phone":"(207)657-4541","web":"Cumberland"},{"id":70,"name":"Crossroads Food Pantry","lat":"44.4005308","lng":"-69.160599","address":"1106 Augusta Rd","address2":"","city":"Morrill","state":"ME","postal":"04952","country":"USA","phone":"(207)342-4044","web":"Waldo"},{"id":71,"name":"Crossroads Ministries Inc","lat":"44.9392979","lng":"-68.6491378","address":"https:\/\/www.facebook.com\/CrossroadsResources","address2":"2 Wood St","city":"Old Town","state":"ME","postal":"04468","country":"USA","phone":"(207)817-6025","web":"Penobscot"},{"id":72,"name":"Crosswalk Community Outreach Kitchen","lat":"43.9707156","lng":"-70.6102179","address":"15 Village Green","address2":"","city":"Naples","state":"ME","postal":"04055","country":"USA","phone":"(207)615-3226","web":"Cumberland"},{"id":73,"name":"Curtis Lake Church","lat":"43.4139698","lng":"-70.7530035","address":"38 Westview Dr","address2":"","city":"Sanford","state":"ME","postal":"04073","country":"USA","phone":"(207)324-0652","web":"York"},{"id":74,"name":"District Exchange Food Pantry","lat":"44.405193","lng":"-70.7917721","address":"16 Church Street","address2":"","city":"Bethel","state":"ME","postal":"04217","country":"USA","phone":"(207)824-0369","web":"Oxford"},{"id":75,"name":"Dixfield Food Pantry","lat":"44.5402751","lng":"-70.3799667","address":"2 Chapel Rd.","address2":"","city":"Dixfield","state":"ME","postal":"04224","country":"USA","phone":"(207)562-7470","web":"Oxford"},{"id":76,"name":"Dover-Foxcroft Area Food Cupboard","lat":"45.184225","lng":"-69.232399","address":"https:\/\/www.facebook.com\/DFAreaFoodCupboard\/","address2":"76 North Street","city":"Dover-Foxcroft","state":"ME","postal":"04426","country":"United States","phone":"(207)717-7529","web":"Piscataquis"},{"id":77,"name":"Down East AIDS Network","lat":"44.8043236","lng":"-68.7668423","address":"https:\/\/www.facebook.com\/mehealthequity\/","address2":"304 Hancock Street, Suite 3B","city":"Bangor","state":"ME","postal":"04401","country":"USA","phone":"(207)990-3626","web":"Penobscot"},{"id":78,"name":"Eastern Agency on Aging \u2013 Meals on Wheels","lat":"44.819678","lng":"-68.811442","address":"https:\/\/www.facebook.com\/easternaaa\/?ref=br_rs","address2":"1129 Union Street Suite 30 - Airport Mall Annex","city":"Bangor","state":"ME","postal":"04401","country":"USA","phone":"(207)941-2871","web":"Penobscot"},{"id":79,"name":"Ecumenical Food Cupboard \u2013 Bangor","lat":"44.8009373","lng":"-68.7744883","address":"https:\/\/www.facebook.com\/groups\/Ecufoodcupboard\/","address2":"28 High St","city":"Bangor","state":"ME","postal":"04402","country":"USA","phone":"(207)942-4381","web":"Penobscot"},{"id":80,"name":"Emmaus Shelter","lat":"44.540776","lng":"-68.425237","address":"https:\/\/www.facebook.com\/Emmaus-Homeless-Shelter-157877550928703\/","address2":"51 Main St","city":"Ellsworth","state":"ME","postal":"04605","country":"USA","phone":"(207)667-3962","web":"Hancock"},{"id":81,"name":"Evening Sandwich","lat":"44.5465399","lng":"-69.63509","address":"69 Silver St","address2":"","city":"Waterville","state":"ME","postal":"04901","country":"USA","phone":"(207)873-4006","web":"Kennebec"},{"id":82,"name":"Everybody Eats","lat":"44.546576","lng":"-68.426488","address":"https:\/\/www.facebook.com\/Everybody-Eats-A-Free-Community-Meal-568143769902367\/","address2":"134 State St","city":"Ellsworth","state":"ME","postal":"04605","country":"USA","phone":"(207)667-6206","web":"Hancock"},{"id":83,"name":"Fairfield Interfaith Food Pantry","lat":"44.587480","lng":"-69.595499","address":"23 Lawrence Ave","address2":"","city":"Fairfield","state":"ME","postal":"04937","country":"USA","phone":"(207)465-7134","web":"Somerset"},{"id":84,"name":"Faith Christian Center Food Pantry","lat":"43.6962641","lng":"-70.7880872","address":"143 Washington St","address2":"","city":"Limerick","state":"ME","postal":"04048","country":"United States","phone":"(207)793-8444","web":"York"},{"id":85,"name":"Faith Food Pantry","lat":"44.218413","lng":"-69.779704","address":"280 Brunswick Ave","address2":"","city":"Gardiner","state":"ME","postal":"04345","country":"USA","phone":"(207)582-5432","web":"Kennebec"},{"id":86,"name":"Falmouth Food Pantry","lat":"43.7338746","lng":"-70.2793826","address":"271 Falmouth Rd","address2":"","city":"Falmouth","state":"ME","postal":"04105","country":"USA","phone":"(207)781-2996","web":"Cumberland"},{"id":87,"name":"Family Food Pantry of Carmel","lat":"44.80628","lng":"-69.0651144","address":"https:\/\/carmelcrossing.org\/food-pantry\/","address2":"87 Damascus Rd","city":"Carmel","state":"ME","postal":"04419","country":"USA","phone":"(603)398-2580","web":"Penobscot"},{"id":88,"name":"Fayette Baptist Church","lat":"44.4238725","lng":"-70.0752583","address":"39 Baldwin Hill Rd","address2":"","city":"Fayette","state":"ME","postal":"04349","country":"USA","phone":"(207)685-9492","web":"Kennebec"},{"id":89,"name":"First Assembly of God \u2013 Portland","lat":"43.660621","lng":"-70.257449","address":"243 Cumberland Ave","address2":"","city":"Portland","state":"ME","postal":"04101","country":"USA","phone":"(207)774-2415","web":"Cumberland"},{"id":90,"name":"First Baptist Church \u2013 Portland","lat":"43.6900758","lng":"-70.2783687","address":"360 Canco Rd","address2":"","city":"Portland","state":"ME","postal":"04103","country":"USA","phone":"(207)773-3123","web":"Cumberland"},{"id":91,"name":"First Baptist Church Food Bank","lat":"44.501945","lng":"-69.9878975","address":"321 Pond Rd","address2":"","city":"Mt Vernon","state":"ME","postal":"04352","country":"USA","phone":"(207)293-2141 or 293-2273","web":"Kennebec"},{"id":92,"name":"First Congregational Church \u2013 New Gloucester","lat":"43.9621179","lng":"-70.283032","address":"19 Gloucester Hill Rd","address2":"","city":"New Gloucester","state":"ME","postal":"04260","country":"USA","phone":"(207)926-3260","web":"Cumberland"},{"id":93,"name":"First Congregational East Baldwin","lat":"43.8028326","lng":"-70.6799003","address":"26 School St","address2":"","city":"East Baldwin","state":"ME","postal":"04024","country":"USA","phone":"(207)657-2360","web":"Cumberland"},{"id":94,"name":"Footprints Food Pantry","lat":"43.093188","lng":"-70.752718","address":"37 Old Post Rd","address2":"","city":"Kittery","state":"ME","postal":"03904","country":"USA","phone":"(207)439-4673","web":"York"},{"id":95,"name":"Freeport Community Services","lat":"43.85427","lng":"-70.104478","address":"53 Depot St","address2":"","city":"Freeport","state":"ME","postal":"04032","country":"USA","phone":"(207)865-3985","web":"Cumberland"},{"id":96,"name":"Friends Helping Friends \u2013 Easton Branch","lat":"46.6430733","lng":"-67.9124726","address":"https:\/\/www.facebook.com\/Friends-Helping-Friends-Easton-Food-Panty-1220298374681357\/","address2":"23 Station Rd","city":"Easton","state":"ME","postal":"04740","country":"USA","phone":"(207)488-6608","web":"Aroostook"},{"id":97,"name":"Friendship \u2013 Cushing Food Pantry","lat":"43.982132","lng":"-69.332607","address":"23 School St","address2":"","city":"Cushing","state":"ME","postal":"04563","country":"USA","phone":"(207)354-0669","web":"Knox"},{"id":98,"name":"FUMC \u2013 Community Meal \u2013 Bangor","lat":"44.825084","lng":"-68.769123","address":"https:\/\/www.fumcbangor.org\/community-meal.html","address2":"703 Essex St","city":"Bangor","state":"ME","postal":"04401","country":"United States","phone":"(207)945-9567","web":"Penobscot"},{"id":99,"name":"Gateway Food Bank","lat":"44.8637103","lng":"-69.2842637","address":"https:\/\/gatewaypentecostal.com\/","address2":"363 Moosehead Trail","city":"Newport","state":"ME","postal":"04953","country":"USA","phone":"(207)512-5119","web":"Penobscot"},{"id":100,"name":"GIFT (Grace Interfaith Food Table)","lat":"46.6817017","lng":"-68.0240463","address":"11 Industrial St","address2":"","city":"Presque Isle","state":"ME","postal":"04769","country":"USA","phone":"(207)764-8584","web":"Aroostook"},{"id":101,"name":"Gorham Ecumenical Food Pantry","lat":"43.684004","lng":"-70.426424","address":"299B Main St","address2":"","city":"Gorham","state":"ME","postal":"04038","country":"USA","phone":"(207)222-4351","web":"Cumberland"},{"id":102,"name":"GRAMPA Food Pantry","lat":"44.5667405","lng":"-70.5516784","address":"163 Main St","address2":"","city":"Mexico","state":"ME","postal":"04257","country":"USA","phone":"(207)364-8185","web":"Oxford"},{"id":103,"name":"Gramps \u2013 UMC Community Lunch","lat":"44.5562449","lng":"-70.5450313","address":"32 Main St","address2":"","city":"Mexico","state":"ME","postal":"04257","country":"USA","phone":"(207)364-7242","web":"Oxford"},{"id":104,"name":"Gray Community Food Pantry","lat":"43.859184","lng":"-70.3270484","address":"1st Congregational Church Parish House","address2":"5 Brown Street","city":"Gray","state":"ME","postal":"04039","country":"USA","phone":"207-657-4279 mailbox # 3","web":"Cumberland"},{"id":105,"name":"Greater Bay Area Ministerium","lat":"44.436580","lng":"-68.997026","address":"23 Mill Lane","address2":"","city":"Belfast","state":"ME","postal":"04915","country":"United States","phone":"(207)218-1213","web":"Waldo"},{"id":106,"name":"Greater Fort Kent Ecumenical Food Pantry","lat":"47.2495668","lng":"-68.5994424","address":"https:\/\/www.facebook.com\/pages\/Greater-Ft-Kt-Ecumenical-Food-Pantry\/155305204506512","address2":"229 West Main St Ste 103","city":"Fort Kent","state":"ME","postal":"04743","country":"USA","phone":"(207)834-4126","web":"Aroostook"},{"id":107,"name":"Greater Waterville Area Food Pantry","lat":"44.552928","lng":"-69.634235","address":"61 Pleasant St","address2":"","city":"Waterville","state":"ME","postal":"04901","country":"United States","phone":"","web":"Kennebec"},{"id":108,"name":"Greene Baptist Church Food Pantry","lat":"44.1893869","lng":"-70.1432059","address":"108 Main St","address2":"","city":"Greene","state":"ME","postal":"04236","country":"USA","phone":"(207)946-2121","web":"Androscoggin"},{"id":109,"name":"H.O.M.E. Co-Op","lat":"44.5706252","lng":"-68.7378128","address":"https:\/\/www.facebook.com\/HOMEINC1970\/?ref=br_rs","address2":"90 Schoolhouse Rd","city":"Orland","state":"ME","postal":"04472","country":"USA","phone":"(207)469-7961","web":"Hancock"},{"id":110,"name":"Hallowell Food Bank Inc","lat":"44.2859022","lng":"-69.7908786","address":"6 Pearleys Lane","address2":"","city":"Hallowell","state":"ME","postal":"04347","country":"USA","phone":"(207)333-0947","web":"Kennebec"},{"id":111,"name":"Hampden Neighborhood Food","lat":"44.7449104","lng":"-68.8375848","address":"https:\/\/www.facebook.com\/Hampden-Neighborhood-Food-Cupboard-371494522972074\/","address2":"101 Main Rd North","city":"Hampden","state":"ME","postal":"04444","country":"USA","phone":"(207)862-5248","web":"Penobscot"},{"id":112,"name":"Harmony Cares Food Pantry    Harmony ME 04942","lat":"44.976678","lng":"-69.546696","address":"1 Fairway Lane","address2":"","city":"Harmony","state":"ME","postal":"04942","country":"United States","phone":"","web":"Somerset"},{"id":113,"name":"Harrison Food Bank","lat":"44.122842","lng":"-70.692405","address":"176 Waterford Rd","address2":"","city":"Harrison","state":"ME","postal":"04040","country":"USA","phone":"(207)712-1384","web":"Cumberland"},{"id":114,"name":"High Street Cong\u2019l Church Food Pantry","lat":"44.0961868","lng":"-70.2284136","address":"106 Pleasant St","address2":"","city":"Auburn","state":"ME","postal":"04210","country":"USA","phone":"(207)784-1306","web":"Androscoggin"},{"id":115,"name":"Hollis Center Church Food Pantry","lat":"43.6507292","lng":"-70.6376005","address":"388 Hollis Rd","address2":"","city":"Hollis Center","state":"ME","postal":"04042","country":"USA","phone":"(207)929-4711","web":"York"},{"id":116,"name":"Hope Haven Gospel Mission","lat":"44.0913688","lng":"-70.218248","address":"209 Lincoln St","address2":"","city":"Lewiston","state":"ME","postal":"04240","country":"USA","phone":"(207)783-6086","web":"Androscoggin"},{"id":117,"name":"Hope House \u2013 Penobscot Community Health Care","lat":"44.804583","lng":"-68.80577","address":"https:\/\/www.facebook.com\/HopeHouseBangor\/","address2":"179 Indiana Ave","city":"Bangor","state":"ME","postal":"04401","country":"USA","phone":"(207)217-6713 ext.1480","web":"Penobscot"},{"id":118,"name":"Hope House Network","lat":"44.1006029","lng":"-70.2115502","address":"91 College St","address2":"","city":"Lewiston","state":"ME","postal":"04240","country":"USA","phone":"(207)577-1165","web":"Androscoggin"},{"id":119,"name":"Indian Township Food Pantry","lat":"45.2293802","lng":"-67.5798953","address":"US Route 1","address2":"","city":"Princeton","state":"ME","postal":"04668","country":"USA","phone":"(207)796-2301","web":"Washington"},{"id":120,"name":"Irene Chadbourne Ecumenical Food Pantry","lat":"45.178644","lng":"-67.2538144","address":"https:\/\/www.facebook.com\/CalaisFoodPantry\/","address2":"513 Main St","city":"Calais","state":"ME","postal":"04619","country":"USA","phone":"(207)454-8238","web":"Washington"},{"id":121,"name":"Island Food Pantry","lat":"44.1579283","lng":"-68.6662399","address":"https:\/\/www.islandcommunitycenter.net\/programs","address2":"2 Pasture Road","city":"Stonington","state":"ME","postal":"04681","country":"USA","phone":"(207)348-6181","web":"Hancock"},{"id":122,"name":"Jackson Food Pantry","lat":"44.6151333","lng":"-69.1193302","address":"260 Village Rd","address2":"","city":"Jackson","state":"ME","postal":"04921","country":"USA","phone":"(207)722-3205","web":"Waldo"},{"id":123,"name":"Jefferson Area Food Pantry","lat":"44.200470","lng":"-69.491440","address":"72 Gardiner Rd","address2":"","city":"Jefferson","state":"ME","postal":"04348","country":"United States","phone":"","web":"Lincoln"},{"id":124,"name":"Jewish Family Services Food Pantry","lat":"43.658738","lng":"-70.295462","address":"1342 Congress St","address2":"","city":"Portland","state":"ME","postal":"04102","country":"USA","phone":"(207)772-1959","web":"Cumberland"},{"id":125,"name":"Jonesport Food Pantry","lat":"44.5324795","lng":"-67.5953596","address":"https:\/\/www.facebook.com\/pg\/Sawyer-Memorial-Congregational-Church-943412085737991\/about\/?ref=page_internal","address2":"25 Sawyer Square","city":"Jonesport","state":"ME","postal":"04649","country":"USA","phone":"(207)598-5964","web":"Washington"},{"id":126,"name":"Kaydenz Kitchen Food Pantry","lat":"44.088820","lng":"-70.212230","address":"550 Lisbon St","address2":"","city":"Lewiston","state":"ME","postal":"04240","country":"United States","phone":"207-577-7942","web":"Androscoggin"},{"id":127,"name":"Labor of Love \u2013 Garrapy Food Pantry","lat":"44.914962","lng":"-67.007331","address":"https:\/\/www.facebook.com\/LaborOfLoveNutritionCenter\/","address2":"137 County Rd","city":"Eastport","state":"ME","postal":"04631","country":"USA","phone":"(207)853-0812","web":"Washington"},{"id":128,"name":"Leeds Food Pantry","lat":"44.3023768","lng":"-70.1313528","address":"123 Church Hill Rd","address2":"","city":"Leeds","state":"ME","postal":"04263","country":"USA","phone":"(207)524-7151","web":"Androscoggin"},{"id":129,"name":"Liberty Area Food Pantry","lat":"44.3925799","lng":"-69.3072471","address":"100 Main St","address2":"","city":"Liberty","state":"ME","postal":"04949","country":"USA","phone":"(207)589-4671","web":"Waldo"},{"id":130,"name":"Lighthouse COG Bread of Life","lat":"44.72986","lng":"-68.827372","address":"https:\/\/www.facebook.com\/Orrington-Lighthouse-Church-of-God-207242739299558\/","address2":"696 River Rd","city":"Orrington","state":"ME","postal":"04474","country":"USA","phone":"(207)825-9001","web":"Penobscot"},{"id":131,"name":"Limington OPC Food Pantry","lat":"43.7320084","lng":"-70.7086448","address":"302 Sokokis Ave","address2":"","city":"Limington","state":"ME","postal":"04049","country":"USA","phone":"(207)415-0151","web":"York"},{"id":132,"name":"Lincoln FUMC Community Meals Program","lat":"45.365695","lng":"-68.502980","address":"https:\/\/www.lincolnumc.org\/ministries","address2":"8 Lee Rd","city":"Lincoln","state":"ME","postal":"04457","country":"United States","phone":"(207)794-8443","web":"Penobscot"},{"id":133,"name":"Lincoln Regional Food Cupboard","lat":"45.3630308","lng":"-68.5153214","address":"32 Park St","address2":"","city":"Lincoln","state":"ME","postal":"04457","country":"USA","phone":"(207)794-3784","web":"Penobscot"},{"id":134,"name":"Lisbon Area Christian Outreach","lat":"44.000303","lng":"-70.060484","address":"16 School St","address2":"","city":"Lisbon Falls","state":"ME","postal":"04252","country":"USA","phone":"(207)353-8544","web":"Androscoggin"},{"id":135,"name":"Litchfield Community Food Bank","lat":"44.135283","lng":"-69.980767","address":"491 Richmond Rd","address2":"","city":"Litchfield","state":"ME","postal":"04350","country":"USA","phone":"","web":"Kennebec"},{"id":136,"name":"Little River Church Food Pantry","lat":"44.395278","lng":"-68.9882354","address":"259 Northport Ave","address2":"","city":"Belfast","state":"ME","postal":"04915","country":"USA","phone":"(207)338-1006","web":"Waldo"},{"id":137,"name":"Loaves & Fishes \u2013 Albion Food Pantry","lat":"44.5402203","lng":"-69.4452876","address":"123 Benton Rd","address2":"","city":"Albion","state":"ME","postal":"04910","country":"USA","phone":"(207)437-7123","web":"Kennebec"},{"id":138,"name":"Loaves & Fishes Food Pantry","lat":"44.5391524","lng":"-68.4377032","address":"https:\/\/www.facebook.com\/LoavesandFishespantry\/","address2":"119 Bucksport Rd","city":"Ellsworth","state":"ME","postal":"04605","country":"USA","phone":"(207)667-4363","web":"Hancock"},{"id":139,"name":"Loaves & Fishes Food Pantry \u2013 Sabattus","lat":"44.1057247","lng":"-70.1105509","address":"61 Lisbon Rd","address2":"","city":"Sabattus","state":"ME","postal":"04280","country":"USA","phone":"(207)375-8399","web":"Androscoggin"},{"id":140,"name":"Lubec Community Outreach Center","lat":"44.854638","lng":"-66.9894324","address":"https:\/\/www.facebook.com\/LubecOutreach.org\/","address2":"44 South St","city":"Lubec","state":"ME","postal":"04652","country":"United States","phone":"(207)733-6113","web":"Washington"},{"id":141,"name":"Machias Food Pantry","lat":"44.7151693","lng":"-67.4575337","address":"https:\/\/www.facebook.com\/machiasfoodpantry\/","address2":"9 Center St","city":"Machias","state":"ME","postal":"04654","country":"USA","phone":"(207)255-6665","web":"Washington"},{"id":142,"name":"Maine Mental Health Connections Food Pantry","lat":"44.799876","lng":"-68.774384","address":"https:\/\/www.mmhc.us\/food-pantry-soup-kitchen\/","address2":"2 Second St","city":"Bangor","state":"ME","postal":"04401","country":"United States","phone":"(207)941-2907","web":"Penobscot"},{"id":143,"name":"Maine Seacoast Mission \u2013 Edge Program","lat":"44.5904839","lng":"-67.9261219","address":"https:\/\/www.facebook.com\/MEseacoastmission\/","address2":"6 Weald Bethal Lane","city":"Cherryfield","state":"ME","postal":"04622","country":"USA","phone":"(207)546-7424","web":"Washington"},{"id":144,"name":"Mars Hill Community Cupboard","lat":"46.509607","lng":"-67.870138","address":"https:\/\/marshillmaine.org\/notices\/community-cupboard\/","address2":"4 Aci St","city":"Mars Hill","state":"ME","postal":"04758","country":"USA","phone":"(207)429-8043","web":"Aroostook"},{"id":145,"name":"Mid Coast Hunger Prevention Program","lat":"43.911631","lng":"-69.968747","address":"12 Tenney Way","address2":"","city":"Brunswick","state":"Maine","postal":"04011","country":"United States","phone":"(207)725-2716","web":"Cumberland"},{"id":146,"name":"Milestone Foundation \u2013 Shelter","lat":"43.660869","lng":"-70.250204","address":"65 India St","address2":"","city":"Portland","state":"ME","postal":"04101","country":"USA","phone":"(207)775-4790","web":"Cumberland"},{"id":147,"name":"Monmouth United Church Food Pantry","lat":"44.2399247","lng":"-70.0347866","address":"776 Main St","address2":"","city":"Monmouth","state":"ME","postal":"04259","country":"USA","phone":"(207)933-2502","web":"Kennebec"},{"id":148,"name":"Monroe Food For All","lat":"44.614743","lng":"-69.020668","address":"28 West Main St","address2":"","city":"Monroe","state":"ME","postal":"04951","country":"USA","phone":"(207)525-4443","web":"Waldo"},{"id":149,"name":"My Place Teen Center","lat":"43.6767625","lng":"-70.3617716","address":"755 Main St","address2":"","city":"Westbrook","state":"ME","postal":"04092","country":"USA","phone":"(207)854-2800","web":"Cumberland"},{"id":150,"name":"Neighbor\u2019s Cupboard, Inc","lat":"44.6360791","lng":"-68.8512567","address":"40 Park Dr","address2":"","city":"Winterport","state":"ME","postal":"04496","country":"USA","phone":"(207)223-9951","web":"Waldo"},{"id":151,"name":"Neighbor\u2019s Supporting Neighbor\u2019s Community Food Pantry","lat":"44.7960889","lng":"-68.8930708","address":"https:\/\/www.facebook.com\/hermonfoodpantry\/","address2":"2402 US-2","city":"Hermon","state":"ME","postal":"04401","country":"USA","phone":"(207)299-5186","web":"Penobscot"},{"id":152,"name":"Neighborhood Cafe","lat":"43.912692","lng":"-69.816810","address":"798 Washington St","address2":"","city":"Bath","state":"ME","postal":"04530","country":"USA","phone":"(207)443-2187","web":"Sagadahoc"},{"id":153,"name":"Neighborly Niche Food Pantry","lat":"44.223619","lng":"-70.515263","address":"14 Church St","address2":"","city":"West Paris","state":"ME","postal":"04289","country":"United States","phone":"","web":"Oxford"},{"id":154,"name":"New Beginnings Outreach Program","lat":"44.1022602","lng":"-70.2103997","address":"134 College St","address2":"","city":"Lewiston","state":"ME","postal":"04240","country":"USA","phone":"(207)795-6831","web":"Androscoggin"},{"id":155,"name":"New Harbor Food Pantry","lat":"43.873283","lng":"-69.501144","address":"6 South Side","address2":"","city":"New Harbor","state":"ME","postal":"04554","country":"United States","phone":"","web":"Lincoln"},{"id":156,"name":"Newburgh Food Pantry","lat":"44.7441236","lng":"-69.0126581","address":"https:\/\/www.facebook.com\/NewburghFoodPantry\/","address2":"366 Lindsey Rd","city":"Newburgh","state":"ME","postal":"04444","country":"United States","phone":"(207)944-5437","web":"Penobscot"},{"id":157,"name":"Newcastle Ecumenical Food Pantry","lat":"44.034587","lng":"-69.537319","address":"51 Main St","address2":"","city":"Newcastle","state":"ME","postal":"04553","country":"USA","phone":"(207)563-3379","web":"Lincoln"},{"id":158,"name":"Newport Community Food Bank","lat":"44.8376694","lng":"-69.2779889","address":"26 High St","address2":"","city":"Newport","state":"ME","postal":"04953","country":"USA","phone":"(207)368-4402","web":"Penobscot"},{"id":159,"name":"No Greater Love Food Pantry","lat":"44.430852","lng":"-69.015592","address":"34 Field St","address2":"","city":"Belfast","state":"ME","postal":"04915","country":"United States","phone":"207-299-2093","web":"Waldo"},{"id":160,"name":"Norridgewock Community Food Cupboard","lat":"44.704939","lng":"-69.770137","address":"227 Waterville Rd","address2":"","city":"Norridgewock","state":"ME","postal":"04957","country":"United States","phone":"(207)634-4116","web":"Somerset"},{"id":161,"name":"North Berwick Food Pantry","lat":"43.310781","lng":"-70.738689","address":"77 High St","address2":"","city":"North Berwick","state":"ME","postal":"03906","country":"United States","phone":"","web":"York"},{"id":162,"name":"North Deering Congregational Church Emergency Food Pantry","lat":"43.6989571","lng":"-70.287971","address":"1364 Washington Ave","address2":"","city":"Portland","state":"ME","postal":"04103","country":"USA","phone":"(207)797-2487","web":"Cumberland"},{"id":163,"name":"North Fryeburg Community Chapel Dinner","lat":"44.111811","lng":"-70.975583","address":"3 North Fryeburg Rd","address2":"","city":"Fryeburg","state":"ME","postal":"04037","country":"United States","phone":"","web":"Oxford"},{"id":164,"name":"North Monmouth Food Pantry","lat":"44.2774567","lng":"-70.0306633","address":"151 North Main St","address2":"","city":"North Monmouth","state":"ME","postal":"04265","country":"USA","phone":"(207)933-2400","web":"Kennebec"},{"id":165,"name":"Northport Food Pantry","lat":"44.3366754","lng":"-68.9596854","address":"489 Atlantic Hwy","address2":"","city":"Northport","state":"ME","postal":"04849","country":"United States","phone":"(781)801-0331","web":"Waldo"},{"id":166,"name":"Oakland UMC Food Cupboard","lat":"44.5450124","lng":"-69.7180946","address":"20 West School Lane","address2":"","city":"Oakland","state":"ME","postal":"04963","country":"USA","phone":"(207)465-4422","web":"Kennebec"},{"id":167,"name":"Oasis Food Pantry","lat":"44.7506318","lng":"-68.8378968","address":"72 Laskey Lane","address2":"","city":"Hampden","state":"ME","postal":"04444","country":"","phone":"(207)862-4287","web":"Penobscot"},{"id":168,"name":"Old Orchard Beach Community Food Bank","lat":"43.5124592","lng":"-70.3912756","address":"155 Saco Ave","address2":"","city":"Old Orchard Beach","state":"ME","postal":"04064","country":"USA","phone":"(207)937-8094","web":"York"},{"id":169,"name":"Old Orchard Beach Food Pantry","lat":"43.51195","lng":"-70.382748","address":"2 Fountain Ave","address2":"","city":"Old Orchard Beach","state":"ME","postal":"04064","country":"USA","phone":"(207)934-5553","web":"York"},{"id":170,"name":"Orient Food Pantry","lat":"45.8170031","lng":"-67.8400137","address":"82 Schoolhouse Rd","address2":"","city":"Orient","state":"ME","postal":"04471","country":"USA","phone":"(207)448-7729","web":"Aroostook"},{"id":171,"name":"Oxford Helping Hands Food Pantry","lat":"44.1328732","lng":"-70.495057","address":"85 Pleasant St","address2":"","city":"Oxford","state":"ME","postal":"04270","country":"USA","phone":"(207)539-4431","web":"Oxford"},{"id":172,"name":"Oxford Hills Food Pantry","lat":"44.211726","lng":"-70.531582","address":"35 Paris St","address2":"","city":"Norway","state":"ME","postal":"04268","country":"USA","phone":"(207)388-2712","web":"Oxford"},{"id":173,"name":"Oxford Seventh Day Adventist Food Pantry","lat":"44.177852","lng":"-70.51206","address":"259 Fore St","address2":"","city":"Oxford","state":"ME","postal":"04270","country":"USA","phone":"(207)739-2871","web":"Oxford"},{"id":174,"name":"Palermo Food Pantry","lat":"44.3558133","lng":"-69.4525801","address":"22 Veterans Way - Turner Ridge Rd","address2":"Living Communities Foundation","city":"Palermo","state":"ME","postal":"04354","country":"United States","phone":"(207)993-2225","web":"Waldo"},{"id":175,"name":"Palmyra Soup Kitchen","lat":"44.84831","lng":"-69.3714462","address":"768 Main St","address2":"","city":"Palmyra","state":"ME","postal":"04965","country":"USA","phone":"(207)341-3915","web":"Somerset"},{"id":176,"name":"Partnership Food Pantry \u2013 Greenville","lat":"45.454382","lng":"-69.597520","address":"60 Mayhew Manor Road","address2":"","city":"Greenville","state":"ME","postal":"04441","country":"USA","phone":"(207)518-8833","web":"Piscataquis"},{"id":177,"name":"Partnership Food Pantry \u2013 Guilford","lat":"45.166113","lng":"-69.401359","address":"84 Elm Street","address2":"","city":"Guilford","state":"ME","postal":"04443","country":"USA","phone":"(207)518-8833","web":"Piscataquis"},{"id":178,"name":"Passamaquoddy Food Pantry","lat":"44.965076","lng":"-67.062572","address":"9 Sakom Dr","address2":"","city":"Perry","state":"ME","postal":"04667","country":"United States","phone":"(207)853-5164","web":"Washington"},{"id":179,"name":"Pathway Vineyard Church \u2013 Brunswick","lat":"43.916634","lng":"-69.959875","address":"2 Columbus Dr","address2":"","city":"Brunswick","state":"ME","postal":"04011","country":"United States","phone":"","web":"Cumberland"},{"id":180,"name":"Pathway Vineyard Church Food Pantry","lat":"44.055143","lng":"-70.136049","address":"9 Foss Rd","address2":"","city":"Lewiston","state":"ME","postal":"04240","country":"USA","phone":"(207)784-9500","web":"Androscoggin"},{"id":181,"name":"Pathway Vineyard Church Soup Kitchen","lat":"44.055143","lng":"-70.136049","address":"9 Foss Rd","address2":"","city":"Lewiston","state":"ME","postal":"04240","country":"USA","phone":"(207)784-9500","web":"Androscoggin"},{"id":182,"name":"People Who Care Food Cupboard","lat":"44.789204","lng":"-69.882605","address":"108 Old Point Ave","address2":"","city":"Madison","state":"ME","postal":"04950","country":"United States","phone":"","web":"Somerset"},{"id":183,"name":"Phillips Area Food Pantry","lat":"44.8232421","lng":"-70.343169","address":"15 Russell St","address2":"","city":"Phillips","state":"ME","postal":"04966","country":"USA","phone":"(207)639-4287","web":"Franklin"},{"id":184,"name":"Poland Community Church","lat":"44.0616022","lng":"-70.3945593","address":"1212 Maine St","address2":"","city":"Poland","state":"ME","postal":"04274","country":"USA","phone":"(207)998-4069","web":"Androscoggin"},{"id":185,"name":"Poland Spring Academy","lat":"44.0717205","lng":"-70.3481521","address":"14 Hope Springs Rd","address2":"","city":"Poland","state":"ME","postal":"04274","country":"United States","phone":"(207)998-4566","web":"Androscoggin"},{"id":186,"name":"Preble Street Food Pantry","lat":"43.658846","lng":"-70.2620841","address":"252 Oxford St","address2":"","city":"Portland","state":"ME","postal":"04101","country":"USA","phone":"(207)775-0026","web":"Cumberland"},{"id":187,"name":"Preble Street Resource Center Soup Kitchen","lat":"43.658846","lng":"-70.2620841","address":"252 Oxford St","address2":"","city":"Portland","state":"ME","postal":"04101","country":"USA","phone":"(207)775-0026","web":"Cumberland"},{"id":188,"name":"Project Feed Inc","lat":"43.6706778","lng":"-70.287263","address":"202 Woodford St","address2":"","city":"Portland","state":"ME","postal":"04103","country":"USA","phone":"(207)761-3920","web":"Cumberland"},{"id":189,"name":"Raymond Food Pantry","lat":"43.885982","lng":"-70.464076","address":"1273 Roosevelt Trl","address2":"","city":"Raymond","state":"ME","postal":"04071","country":"USA","phone":"(207)232-5830","web":"Cumberland"},{"id":190,"name":"Richmond Food Pantry","lat":"44.0855733","lng":"-69.8039632","address":"15 Spruce St","address2":"P.O. Box 74","city":"Richmond","state":"ME","postal":"04357","country":"USA","phone":"(207)607-2777","web":"Sagadahoc"},{"id":191,"name":"Riverside UMC Food Pantry","lat":"43.8080805","lng":"-70.8892937","address":"5 School St","address2":"","city":"Porter","state":"ME","postal":"04068","country":"United States","phone":"(207)625-7772","web":"Oxford"},{"id":192,"name":"Root Cellar \u2013 Lewiston","lat":"44.093219","lng":"-70.209568","address":"89 Birch St","address2":"","city":"Lewiston","state":"ME","postal":"04240","country":"USA","phone":"(207)782-3659","web":"Androscoggin"},{"id":193,"name":"Root Cellar \u2013 Portland","lat":"43.6664791","lng":"-70.2527318","address":"94 Washington Ave","address2":"","city":"Portland","state":"ME","postal":"04101","country":"USA","phone":"(207)774-3197","web":"Cumberland"},{"id":194,"name":"Saco Food Pantry","lat":"43.507594","lng":"-70.423039","address":"67 Ocean Park Rd","address2":"","city":"Saco","state":"ME","postal":"04072","country":"USA","phone":"(207)468-1305","web":"York"},{"id":195,"name":"Saco Meals Program","lat":"43.498480","lng":"-70.444870","address":"271 Main St","address2":"","city":"Saco","state":"ME","postal":"04072","country":"USA","phone":"https:\/\/goodshepherdparish.us\/saco-meals-program-1","web":"York"},{"id":196,"name":"Sacred Heart \/ St. Dominic Food Pantry","lat":"43.655433","lng":"-70.269386","address":"80 Sherman St","address2":"","city":"Portland","state":"ME","postal":"04101","country":"United States","phone":"207-310-7729","web":"Cumberland"},{"id":197,"name":"Sacred Heart Soup Kitchen","lat":"44.553724","lng":"-69.634247","address":"70 Pleasant St","address2":"","city":"Waterville","state":"ME","postal":"04901","country":"United States","phone":"","web":"Kennebec"},{"id":198,"name":"Safe Place Community Outreach","lat":"45.0025117","lng":"-69.0229461","address":"https:\/\/www.facebook.com\/pages\/Safe-Place-Food-Pantry\/429685150489659","address2":"328 Main St","city":"Corinth","state":"ME","postal":"04427","country":"USA","phone":"(207)299-7671","web":"Penobscot"},{"id":199,"name":"Salvation Army \u2013 Augusta Food Pantry","lat":"44.310097","lng":"-69.767997","address":"36 Eastern Ave","address2":"","city":"Augusta","state":"ME","postal":"04332","country":"USA","phone":"(207)623-3752","web":"Kennebec"},{"id":200,"name":"Salvation Army \u2013 Bangor","lat":"44.809479","lng":"-68.771031","address":"https:\/\/www.facebook.com\/TheSalvationArmyBangorCitadelCorps\/","address2":"65 South Park St","city":"Bangor","state":"ME","postal":"04401","country":"USA","phone":"(207)941-2990","web":"Penobscot"},{"id":201,"name":"Salvation Army \u2013 Bath Corps","lat":"43.909157","lng":"-69.833460","address":"25 Congress Ave","address2":"","city":"Bath","state":"ME","postal":"04530","country":"United States","phone":"(207)443-3611","web":"Sagadahoc"},{"id":202,"name":"Salvation Army \u2013 Lewiston","lat":"44.097219","lng":"-70.216774","address":"67 Park St","address2":"","city":"Lewiston","state":"ME","postal":"04240","country":"USA","phone":"(207)783-0801","web":"Androscoggin"},{"id":203,"name":"Salvation Army \u2013 Portland Food Pantry","lat":"43.6592321","lng":"-70.2593615","address":"297 Cumberland Ave","address2":"","city":"Portland","state":"ME","postal":"04101","country":"USA","phone":"(207)774-4172","web":"Cumberland"},{"id":204,"name":"Salvation Army \u2013 Rockland","lat":"44.0996243","lng":"-69.128211","address":"27 Payne Ave","address2":"","city":"Rockland","state":"ME","postal":"04841","country":"USA","phone":"(207)594-5326","web":"Knox"},{"id":205,"name":"Salvation Army \u2013 Sanford","lat":"43.4409569","lng":"-70.7779435","address":"871 Main St","address2":"","city":"Sanford","state":"ME","postal":"04073","country":"USA","phone":"(207)324-3134","web":"York"},{"id":206,"name":"Salvation Army- Houlton","lat":"46.125325","lng":"-67.839308","address":"https:\/\/www.facebook.com\/The-Salvation-Army-Houlton-423847657802909\/","address2":"12 Court St","city":"Houlton","state":"ME","postal":"04730","country":"United States","phone":"207-532-2322","web":"Aroostook"},{"id":207,"name":"Salvation Army- Old Orchard Beach","lat":"43.512289","lng":"-70.385974","address":"2 Sixth St","address2":"","city":"Old Orchard Beach","state":"ME","postal":"04064","country":"USA","phone":"(207)934-4381","web":"York"},{"id":208,"name":"Samaritan Inc.","lat":"44.907181","lng":"-68.8646671","address":"https:\/\/www.facebook.com\/Samaritan-Inc-575335519242223\/","address2":"Locations vary by day of the week","city":"Glenburn","state":"ME","postal":"04401","country":"USA","phone":"(207)385-6232","web":"Penobscot"},{"id":209,"name":"Searsport Congregational \u2013 Methodist Food Pantry","lat":"44.4587702","lng":"-68.9250494","address":"43 East Main St","address2":"","city":"Searsport","state":"ME","postal":"04974","country":"USA","phone":"(207)548-6204","web":"Waldo"},{"id":210,"name":"Sebago Warming Hut","lat":"43.8439036","lng":"-70.6253523","address":"183 Rt 114 Sebago Rd","address2":"P.O. Box 395","city":"Sebago","state":"ME","postal":"04029","country":"USA","phone":"(207)274-1569","web":"Cumberland"},{"id":211,"name":"Seniors Plus Meals on Wheels \u2013 Lewiston","lat":"44.065094","lng":"-70.1885439","address":"55 Alfred Plourde Parkway","address2":"","city":"Lewiston","state":"ME","postal":"04240","country":"USA","phone":"(207)795-4010","web":"Androscoggin"},{"id":212,"name":"Servant\u2019s Heart Food Pantry","lat":"44.520520","lng":"-70.467810","address":"98 Main St","address2":"","city":"Peru","state":"ME","postal":"04290","country":"United States","phone":"(207)562-7167","web":"Oxford"},{"id":213,"name":"Seventh Day Adventist Food Pantry","lat":"44.086506","lng":"-70.237726","address":"316 Minot Ave","address2":"","city":"Auburn","state":"ME","postal":"04212","country":"USA","phone":"(207)784-0861","web":"Androscoggin"},{"id":214,"name":"Sidney Second Baptist Food Pantry","lat":"44.440447","lng":"-69.702704","address":"3022 West River Rd","address2":"","city":"Sidney","state":"ME","postal":"04330","country":"United States","phone":"","web":"Kennebec"},{"id":215,"name":"Skowhegan Community Food Pantry","lat":"44.76158","lng":"-69.714538","address":"16 Cariani St","address2":"","city":"Skowhegan","state":"ME","postal":"04976","country":"USA","phone":"(207)474-9249","web":"Somerset"},{"id":216,"name":"South Berwick Community Food Pantry","lat":"43.239635","lng":"-70.808075","address":"47 Ross St","address2":"","city":"South Berwick","state":"ME","postal":"03908","country":"United States","phone":"","web":"York"},{"id":217,"name":"South Gardiner Baptist Church Food Pantry","lat":"44.187134","lng":"-69.757407","address":"639 River Rd","address2":"","city":"South Gardiner","state":"ME","postal":"04359","country":"USA","phone":"(207)582-3751","web":"Kennebec"},{"id":218,"name":"South Portland Food Cupboard","lat":"43.6256373","lng":"-70.2871811","address":"130 Thadeus St","address2":"","city":"South Portland","state":"ME","postal":"04106","country":"USA","phone":"(207)874-0379","web":"Cumberland"},{"id":219,"name":"Southern Maine Agency on Aging- Larrabee Village","lat":"43.681667","lng":"-70.3349206","address":"30 Liza Harmon Dr","address2":"","city":"Westbrook","state":"ME","postal":"04092","country":"USA","phone":"(207)854-6833","web":"Cumberland"},{"id":220,"name":"Spectrum Generations \u2013 Hallowell","lat":"44.2962851","lng":"-69.81643","address":"22 Town Farm Rd","address2":"","city":"Hallowell","state":"ME","postal":"04347","country":"USA","phone":"(207)626-7777","web":"Kennebec"},{"id":221,"name":"Spectrum Generations \u2013 Waterville","lat":"44.5439343","lng":"-69.6388349","address":"38 Gold St","address2":"","city":"Waterville","state":"ME","postal":"04901","country":"USA","phone":"(207)873-4745","web":"Kennebec"},{"id":222,"name":"Springfield Community Chapel Soup Kitchen","lat":"45.3961111","lng":"-68.1355556","address":"62 Park St","address2":"","city":"Springfield","state":"ME","postal":"04487","country":"USA","phone":"(207)738-5021","web":"Penobscot"},{"id":223,"name":"St. Anne\u2019s \u2013 Penobscot Nation DHS","lat":"44.9421045","lng":"-68.6520676","address":"16 Wabanaki Way","address2":"","city":"Indian Island","state":"ME","postal":"04468","country":"USA","phone":"(207)817-7492","web":"Penobscot"},{"id":224,"name":"St. Anthony\u2019s Soup Kitchen","lat":"44.7684832","lng":"-69.7140836","address":"291 Water St","address2":"PO Box 369","city":"Skowhegan","state":"ME","postal":"04976","country":"USA","phone":"(207)474-2039","web":"Somerset"},{"id":225,"name":"St. Bernard Soup Kitchen","lat":"44.1028284","lng":"-69.1185353","address":"150 Broadway","address2":"","city":"Rockland","state":"ME","postal":"04841","country":"","phone":"207-236-4785","web":"Knox"},{"id":226,"name":"St. Charles Food Pantry","lat":"47.244203","lng":"-68.610083","address":"912 Main St","address2":"","city":"St. Francis","state":"ME","postal":"04774","country":"USA","phone":"(207)834-5656","web":"Aroostook"},{"id":227,"name":"St. Francis Soup Kitchen","lat":"44.553724","lng":"-69.634245","address":"70 Pleasant St","address2":"","city":"Waterville","state":"ME","postal":"04901","country":"United States","phone":"","web":"Kennebec"},{"id":228,"name":"St. George Community Cupboard","lat":"43.966393","lng":"-69.211949","address":"47 Main St","address2":"","city":"Tenants Harbor","state":"ME","postal":"04860","country":"United States","phone":"","web":"Knox"},{"id":229,"name":"St. Gerard \u2013 Mt Carmel SJ&P","lat":"47.3072227","lng":"-68.1540656","address":"366 Main Street","address2":"","city":"Grand Isle","state":"ME","postal":"04746","country":"USA","phone":"(207)728-7531","web":"Aroostook"},{"id":230,"name":"St. John\u2019s Food Pantry \u2013 Corpus Christie Parish","lat":"44.5441665","lng":"-69.6239214","address":"26 Monument St","address2":"","city":"Winslow","state":"ME","postal":"04901","country":"USA","phone":"(207)872-2281","web":"Kennebec"},{"id":231,"name":"St. Joseph Food Pantry \u2013 Bridgton","lat":"44.038479","lng":"-70.710043","address":"225 South High St","address2":"","city":"Bridgton","state":"ME","postal":"04211","country":"United States","phone":"","web":"Cumberland"},{"id":232,"name":"St. Joseph Parish Food Pantry \u2013 Sinclair","lat":"47.165576","lng":"-68.267350","address":"413 Shore Rd","address2":"","city":"Sinclair","state":"ME","postal":"04779","country":"USA","phone":"(207)543-6634","web":"Aroostook"},{"id":233,"name":"St. Louis Ecumenical Food Pantry","lat":"46.905953","lng":"-67.825114","address":"100 Main St","address2":"","city":"Limestone","state":"ME","postal":"04750","country":"USA","phone":"(207)498-2536","web":"Aroostook"},{"id":234,"name":"St. Luke\u2019s Food Pantry","lat":"43.652748","lng":"-70.263843","address":"134 Park St","address2":"","city":"Portland","state":"ME","postal":"04101","country":"United States","phone":"(207)772-5434","web":"Cumberland"},{"id":235,"name":"St. Mary\u2019s Ecumenical Food Pantry \u2013 Houlton","lat":"46.1249572","lng":"-67.826269","address":"https:\/\/www.maryagnespaul.org\/ministries\/parish-community-outreach","address2":"110 Military St","city":"Houlton","state":"ME","postal":"04730","country":"USA","phone":"(207)532-9122","web":"Aroostook"},{"id":236,"name":"St. Mary\u2019s Ecumenical Food Pantry \u2013 Wells","lat":"43.2898429","lng":"-70.5790526","address":"236 Eldridge Rd","address2":"","city":"Wells","state":"ME","postal":"04090","country":"USA","phone":"(207)646-5605","web":"York"},{"id":237,"name":"St. Mary\u2019s Food Pantry","lat":"44.095344","lng":"-70.212987","address":"208 Bates St","address2":"","city":"Lewiston","state":"ME","postal":"04240","country":"United States","phone":"(207)513-3841","web":"Androscoggin"},{"id":238,"name":"St. Mary\u2019s Food Pantry \u2013 Eagle Lake","lat":"47.032273","lng":"-68.596068","address":"3443 Main Street","address2":"","city":"Eagle Lake","state":"ME","postal":"04739","country":"USA","phone":"(207)444-5404","web":"Aroostook"},{"id":239,"name":"St. Matthew\u2019s Food Pantry","lat":"43.6966574","lng":"-70.7818488","address":"19 Dora Ln","address2":"","city":"Limerick","state":"ME","postal":"04048","country":"USA","phone":"(207)793-2244","web":"York"},{"id":240,"name":"St. Peter Chanel Food Pantry","lat":"47.156247","lng":"-67.933417","address":"52 Main St","address2":"","city":"Van Buren","state":"ME","postal":"04785","country":"USA","phone":"(207)868-5623","web":"Aroostook"},{"id":241,"name":"St. Philip\u2019s Church Food Pantry","lat":"44.0052715","lng":"-69.6670452","address":"12 Hodge St","address2":"","city":"Wiscasset","state":"ME","postal":"04578","country":"USA","phone":"(207)882-7184","web":"Lincoln"},{"id":242,"name":"St. Theresa Soup Kitchen","lat":"44.546179","lng":"-69.720194","address":"47 Church St","address2":"","city":"Oakland","state":"ME","postal":"04963","country":"United States","phone":"","web":"Kennebec"},{"id":243,"name":"St. Thomas Aquinas\/ St. David Parish","lat":"47.354636","lng":"-68.328153","address":"309 St. Thomas St","address2":"","city":"Madawaska","state":"ME","postal":"04756","country":"United States","phone":"(207)728-7531","web":"Aroostook"},{"id":244,"name":"St. Vincent De Paul Soup Kitchen","lat":"43.6613619","lng":"-70.2537978","address":"307 Congress Street","address2":"","city":"Portland","state":"ME","postal":"04101","country":"USA","phone":"(207)772-1113","web":"Cumberland"},{"id":245,"name":"Standish Food Pantry","lat":"43.7446541","lng":"-70.5405613","address":"175 Northeast Rd","address2":"","city":"Standish","state":"ME","postal":"04084","country":"United States","phone":"(207)893-7790","web":"Cumberland"},{"id":246,"name":"Standish Food Pantry","lat":"43.735879","lng":"-70.551453","address":"175 Northeast Rd","address2":"","city":"Standish","state":"ME","postal":"04084","country":"USA","phone":"(207)893-7790","web":"Cumberland"},{"id":247,"name":"Starks Food Cupboard","lat":"44.7399499","lng":"-69.973807","address":"2 Chicken St","address2":"","city":"Starks","state":"ME","postal":"04911","country":"USA","phone":"(207)696-4337","web":"Somerset"},{"id":248,"name":"Steep Falls Soup Kitchen","lat":"43.7917882","lng":"-70.6554985","address":"35 Main St","address2":"","city":"Steep Falls","state":"ME","postal":"04085","country":"USA","phone":"(207)229-3289","web":"Cumberland"},{"id":249,"name":"Stone Soup Food Pantry","lat":"43.493551","lng":"-70.455608","address":"180 Main St","address2":"","city":"Biddeford","state":"ME","postal":"04005","country":"United States","phone":"(207)283-0055","web":"York"},{"id":250,"name":"Stratton- Eustis Food Pantry","lat":"45.1909994","lng":"-70.4633048","address":"88 Main St","address2":"","city":"Stratton","state":"ME","postal":"04982","country":"USA","phone":"(207)246-4401","web":"Franklin"},{"id":251,"name":"Stroudwater Christian Church Food Pantry","lat":"43.6616861","lng":"-70.3222521","address":"1520 Westbrook St","address2":"","city":"Portland","state":"ME","postal":"04102","country":"USA","phone":"(207)772-2193","web":"Cumberland"},{"id":252,"name":"Sumner Food Pantry","lat":"44.3570011","lng":"-70.3792408","address":"50 Main St","address2":"","city":"Sumner","state":"ME","postal":"04292","country":"USA","phone":"207-388-2610","web":"Oxford"},{"id":253,"name":"Sweden Food Pantry","lat":"44.0689521","lng":"-70.7433283","address":"137 Bridgton Rd","address2":"","city":"Sweden","state":"ME","postal":"04040","country":"","phone":"207-647-5735","web":"Oxford"},{"id":254,"name":"The Open Door","lat":"44.6112473","lng":"-69.33458","address":"32 School St.","address2":"Community Center","city":"Unity","state":"ME","postal":"04988","country":"USA","phone":"(207)948-6232","web":"Waldo"},{"id":255,"name":"The Progress Center \u2013 Oxford Hills Community Kitchen","lat":"44.164353","lng":"-70.498722","address":"5 Fore St.","address2":"","city":"Oxford","state":"ME","postal":"04270","country":"USA","phone":"(207)743-8049","web":"Oxford"},{"id":256,"name":"Thomaston Inter Church Fellowship Food Pantry","lat":"44.080125","lng":"-69.186197","address":"13 Valley St","address2":"","city":"Thomaston","state":"ME","postal":"04861","country":"USA","phone":"207-542-5548","web":"Knox"},{"id":257,"name":"Town of Danforth Food Pantry","lat":"45.658456","lng":"-67.866419","address":"62 Depot St","address2":"","city":"Danforth","state":"ME","postal":"04424","country":"United States","phone":"(207)538-6954","web":"Washington"},{"id":258,"name":"Town of Haynesville","lat":"45.824966","lng":"-67.987357","address":"16 Danforth Rd","address2":"","city":"Haynesville","state":"ME","postal":"04497","country":"United States","phone":"207-448-2239","web":"Aroostook"},{"id":259,"name":"Town of Jackman Food Cupboard","lat":"45.7753117","lng":"-70.3365276","address":"369 Main St","address2":"","city":"Jackman","state":"ME","postal":"04945","country":"USA","phone":"(207)668-2111","web":"Somerset"},{"id":260,"name":"Tree of Life Food Pantry","lat":"44.40774","lng":"-68.5972064","address":"https:\/\/www.facebook.com\/Treeoflifepantry\/","address2":"23 South St","city":"Blue Hill","state":"ME","postal":"04614","country":"USA","phone":"(207)374-2900","web":"Hancock"},{"id":261,"name":"Tri \u2013 Town \/ EM \u2013 UMC Food Pantry","lat":"44.4752112","lng":"-70.1884601","address":"28 Church St","address2":"","city":"Livermore Falls","state":"ME","postal":"04254","country":"USA","phone":"(207)897-3529","web":"Androscoggin"},{"id":262,"name":"Tri \u2013 Town Food Cupboard \u2013 Hartland","lat":"44.8837858","lng":"-69.4498652","address":"9A Hubbard Ave","address2":"","city":"Hartland","state":"ME","postal":"04943","country":"USA","phone":"(207)938-3283","web":"Somerset"},{"id":263,"name":"Tri \u2013 Town Ministerial Food Cupboard","lat":"44.479334","lng":"-70.195666","address":"1 Church St","address2":"","city":"Jay","state":"ME","postal":"04239","country":"United States","phone":"","web":"Franklin"},{"id":264,"name":"Tri Town Baptist Food Pantry","lat":"45.6279421","lng":"-68.5800478","address":"8 Cone St","address2":"","city":"East Millinocket","state":"ME","postal":"04430","country":"USA","phone":"(207) 251-8674","web":"Penobscot"},{"id":265,"name":"Trinity Jubilee Center","lat":"44.093777","lng":"-70.212648","address":"247 Bates St","address2":"","city":"Lewiston","state":"ME","postal":"04240","country":"USA","phone":"(207)782-5700","web":"Androscoggin"},{"id":266,"name":"Turner Food Bank","lat":"44.341354","lng":"-70.248485","address":"96 Howes Corner Rd","address2":"","city":"North Turner","state":"ME","postal":"04282","country":"USA","phone":"(207)224-8256","web":"Androscoggin"},{"id":267,"name":"UMC \u2013 Wilton Area Food Pantry","lat":"44.5916218","lng":"-70.2289135","address":"600 Main St","address2":"","city":"Wilton","state":"ME","postal":"04294","country":"USA","phone":"(207)645-4885","web":"Franklin"},{"id":268,"name":"UMC Ecumenical Food Cupboard \u2013 Milo","lat":"45.2539605","lng":"-68.9864125","address":"https:\/\/www.facebook.com\/Ecumenical-Food-Cupboard-Milo-and-Surrounding-Area-965-5125-373957226356884\/","address2":"15 Park St","city":"Milo","state":"ME","postal":"04463-0116","country":"USA","phone":"(207)943-7785","web":"Piscataquis"},{"id":269,"name":"United Baptist Food Pantry","lat":"46.861105","lng":"-68.010077","address":"74 High St","address2":"","city":"Caribou","state":"ME","postal":"04736","country":"USA","phone":"(207)496-7881","web":"Aroostook"},{"id":270,"name":"United Methodist Economic Ministry","lat":"44.909769","lng":"-70.2396195","address":"1458 Salem Rd","address2":"","city":"Salem","state":"ME","postal":"04983","country":"USA","phone":"(207)678-2611","web":"Franklin"},{"id":271,"name":"United Methodist Good Fellowship","lat":"43.9709229","lng":"-70.6092613","address":"1000 Roosevelt Trl","address2":"","city":"Naples","state":"ME","postal":"04055","country":"USA","phone":"(207)693-4595","web":"Cumberland"},{"id":272,"name":"UUC Sangerville Food Pantry","lat":"45.166394","lng":"-69.358166","address":"https:\/\/www.facebook.com\/First-Universalist-Church-of-Sangerville-Dover-Foxcroft-130890050306834\/","address2":"1 Church St","city":"Sangerville","state":"ME","postal":"04479","country":"United States","phone":"(207)876-4926","web":"Piscataquis"},{"id":273,"name":"UVEC Food Pantry","lat":"45.8701037","lng":"-68.3847308","address":"http:\/\/www.uvecfoodpantry.org\/uvec_food_pantry.aspx","address2":"36 School St Suite 4","city":"Sherman","state":"ME","postal":"04776","country":"USA","phone":"(207)365-7631","web":"Aroostook"},{"id":274,"name":"Vassalboro Food Station Food Pantry","lat":"44.4688056","lng":"-69.6152919","address":"679 Main St","address2":"Rt 32","city":"Vassalboro","state":"ME","postal":"04989","country":"USA","phone":"(207)873-7375","web":"Kennebec"},{"id":275,"name":"VCF \u2013 Bread of Life Food Pantry","lat":"44.1101385","lng":"-70.3828878","address":"90 Lewiston St","address2":"PO Box 55","city":"Mechanic Falls","state":"ME","postal":"04256","country":"USA","phone":"(207)345-9501","web":"Androscoggin"},{"id":276,"name":"VCF \u2013 Bread of Life Soup Kitchen","lat":"44.1101385","lng":"-70.3828878","address":"90 Lewiston St","address2":"PO Box 55","city":"Mechanic Falls","state":"ME","postal":"04256","country":"USA","phone":"(207)345-9501","web":"Androscoggin"},{"id":277,"name":"Vinalhaven Food Pantry","lat":"44.0490031","lng":"-68.8294247","address":"25 E Main St","address2":"","city":"Vinalhaven","state":"ME","postal":"04863","country":"USA","phone":"(207)863-4197","web":"Knox"},{"id":278,"name":"Vineyard Church of Greater Portland","lat":"43.7240168","lng":"-70.3406863","address":"715 Bridgton Rd","address2":"","city":"Westbrook","state":"ME","postal":"04092","country":"USA","phone":"(207)854-8339","web":"Cumberland"},{"id":279,"name":"Volunteer Regional Food Pantry","lat":"44.6143996","lng":"-69.3235146","address":"180 Depot St","address2":"","city":"Unity","state":"ME","postal":"04988","country":"USA","phone":"(207)487-1199","web":"Waldo"},{"id":280,"name":"Waldoboro Food Pantry","lat":"44.0956567","lng":"-69.3763646","address":"251 Jefferson St","address2":"","city":"Waldoboro","state":"ME","postal":"04572","country":"USA","phone":"(207)832-4743","web":"Lincoln"},{"id":281,"name":"Washington Food Bank","lat":"44.2744002","lng":"-69.3675535","address":"33 Liberty Rd","address2":"","city":"Washington","state":"ME","postal":"04574","country":"USA","phone":"(207)845-2623","web":"Knox"},{"id":282,"name":"Waterboro Community Food Pantry","lat":"43.592142","lng":"-70.704678","address":"26 Townhouse Rd","address2":"","city":"Waterboro","state":"Maine","postal":"04030","country":"United States","phone":"","web":"York"},{"id":283,"name":"Wayside Food Programs","lat":"43.679967","lng":"-70.286647","address":"135 Walton Street","address2":"","city":"Portland","state":"ME","postal":"04104","country":"USA","phone":"(207)775-4939","web":"Cumberland"},{"id":284,"name":"Westbrook Community Food Pantry","lat":"43.691115","lng":"-70.3601404","address":"426 Bridge St","address2":"","city":"Westbrook","state":"ME","postal":"04092","country":"USA","phone":"(207)591-8147","web":"Cumberland"},{"id":285,"name":"Westport Cottage Food Pantry","lat":"43.9344112","lng":"-69.6927316","address":"636 Main Rd","address2":"","city":"Westport Island","state":"ME","postal":"04578","country":"USA","phone":"(207)882-8477","web":"Lincoln"},{"id":286,"name":"Westport Island Helping Hands","lat":"43.958090","lng":"-69.683381","address":"38 Ferry Rd","address2":"","city":"Westport Island","state":"ME","postal":"04578","country":"United States","phone":"","web":"Lincoln"},{"id":287,"name":"What\u2019s For Suppa? Food Pantry","lat":"44.697196","lng":"-68.413501","address":"1675 Mariaville Road","address2":"","city":"Mariaville","state":"ME","postal":"04605","country":"USA","phone":"(207)537-5950","web":"Hancock"},{"id":288,"name":"White Memorial Seventh Day Adventist Church","lat":"43.692154","lng":"-70.292498","address":"97 Allen Ave","address2":"","city":"Portland","state":"ME","postal":"04103","country":"USA","phone":"(207)776-0867","web":"Cumberland"},{"id":289,"name":"Whitefield Food Pantry (St. Denis Full Gospel)","lat":"44.228705","lng":"-69.613877","address":"298 Grand Army Rd","address2":"Across from the Catholic Church","city":"Whitefield","state":"ME","postal":"04353","country":"USA","phone":"(207)549-5772","web":"Lincoln"},{"id":290,"name":"Widows and Orphans Food Cupboard","lat":"44.9098875","lng":"-69.1189777","address":"13 Wolfboro Rd","address2":"","city":"Stetson","state":"ME","postal":"04488","country":"USA","phone":"(207)296-2452","web":"Penobscot"},{"id":291,"name":"Windham Food Pantry","lat":"43.7761442","lng":"-70.4174169","address":"377 Gray Rd","address2":"","city":"Windham","state":"ME","postal":"04062","country":"USA","phone":"(207)892-1931","web":"Cumberland"},{"id":292,"name":"Windsor Food Pantry","lat":"44.3114725","lng":"-69.5809213","address":"523 Ridge Rd","address2":"","city":"Windsor","state":"ME","postal":"04363","country":"United States","phone":"2074852414","web":"Kennebec"},{"id":293,"name":"Winthrop Food Pantry","lat":"44.3060613","lng":"-69.9793395","address":"25A High St","address2":"","city":"Winthrop","state":"ME","postal":"04364","country":"USA","phone":"(207)377-3332","web":"Kennebec"},{"id":294,"name":"Winthrop Hot Meal Kitchen","lat":"44.3088549","lng":"-69.9766501","address":"130 Route 133","address2":"","city":"Winthrop","state":"ME","postal":"04364","country":"","phone":"(207) 377-2311","web":"Kennebec"},{"id":295,"name":"Wiscasset Nazarene Outreach","lat":"44.0218847","lng":"-69.6691376","address":"255 Gardiner Rd","address2":"","city":"Wiscasset","state":"ME","postal":"04578","country":"USA","phone":"(207)882-9088","web":"Lincoln"},{"id":296,"name":"Woodstock Food Pantry","lat":"44.3617179","lng":"-70.5521669","address":"25 Perkins Valley Rd","address2":"","city":"Bryant Pond","state":"ME","postal":"04219","country":"USA","phone":"(207)393-7458","web":"Oxford"},{"id":297,"name":"Wytopitlock Food Pantry","lat":"45.641643","lng":"-68.078312","address":"10 Springer Rd","address2":"","city":"Wytopitlock","state":"ME","postal":"04497","country":"USA","phone":"(207)456-7546","web":"Aroostook"},{"id":298,"name":"Yarmouth Community Food Pantry","lat":"43.798888","lng":"-70.183578","address":"116 Main Street","address2":"","city":"Yarmouth","state":"ME","postal":"04096","country":"USA","phone":"(207)846-3773","web":"Cumberland"},{"id":299,"name":"York Community Service Association Food Pantry","lat":"43.143431","lng":"-70.645732","address":"855 US Rt. One","address2":"","city":"York","state":"ME","postal":"03909","country":"USA","phone":"(207)363-5504","web":"York"},{"id":300,"name":"York County Shelters Programs Inc","lat":"43.451881","lng":"-70.720543","address":"5 Swetts Bridge Rd","address2":"","city":"Alfred","state":"ME","postal":"04002","country":"USA","phone":"(207)324-8811","web":"York"},{"id":301,"name":"Youth Outreach Ministries","lat":"44.185254","lng":"-70.537372","address":"254 Webber Brook Rd","address2":"","city":"Oxford","state":"ME","postal":"04270","country":"USA","phone":"(207)743-6500","web":"Oxford"}]